{"type":"FeatureCollection","features":[{"type":"Feature","properties":{"Name":"Ballyfermot DLS GAA Club","Type":"Sport","Address":"Gurteen Rd. Drumfinn","Town":"Ballyfermot","County":"Dublin ","Postcode":"Dublin 10","Phone":"+353 85 168 7280","Website":"www.ballyfermotdls.altervista.org/","Email":"donorekarateclub@gmail.com"},"geometry":{"type":"Point","coordinates":[-6.33894,53.342379]}},{"type":"Feature","properties":{"Name":"Ballyfermot Leisure Centre","Type":"Sport","Address":"Blackditch Rd. Cherry Orchard","Town":"Ballyfermot","County":"Dublin","Postcode":"Dublin 10","Phone":"+353 1 222 8580","Website":"www.dublincity.ie/main-menu-services-recreation-culture-sports-facilities-leisure-centres-leisure-centre-locations-0","Email":""},"geometry":{"type":"Point","coordinates":[-6.3597487,53.3411046]}},{"type":"Feature","properties":{"Name":"Ballyfermot Sports Complex Ltd.","Type":"Sport","Address":"Gurteen Rd.","Town":"Ballyfermot","County":"Dublin","Postcode":"Dublin 10","Phone":"+353 1 626 9213","Website":"www.facebook.com/ballyfermotsportscomplex1985/","Email":"ballyfermotsportscomplex@gmail.com"},"geometry":{"type":"Point","coordinates":[-6.3653541,53.3466478]}},{"type":"Feature","properties":{"Name":"Ballyfermot United Sports & Social Club","Type":"Sport","Address":"2 Blackditch Rd.","Town":"Cherry Orchard","County":"Dublin ","Postcode":"Dublin 10","Phone":"+353 1 626 7584","Website":"www.bussc.ie/about-us/","Email":"info@bussc.ie"},"geometry":{"type":"Point","coordinates":[-6.357472,53.3418221]}},{"type":"Feature","properties":{"Name":"Black Dragon Shotokan Karate Club","Type":"Sport","Address":"2-58 Blackditch Rd.","Town":"Cherry Orchard","County":"Dublin ","Postcode":"Dublin 10","Phone":"+353 87 121 9129","Website":"www.blackdragonshotokan.webs.com/","Email":""},"geometry":{"type":"Point","coordinates":[-6.3578754,53.3411237]}},{"type":"Feature","properties":{"Name":"Cherry Orchard Equine Centre","Type":"Sport","Address":"Cherry Orchard Green","Town":"Cherry Orchard","County":"Dublin ","Postcode":"Dublin 10","Phone":"+353 1 620 9160","Website":"www.cherryorchard.ie","Email":"reception@cherryorchard.ie"},"geometry":{"type":"Point","coordinates":[-6.379388,53.33813]}},{"type":"Feature","properties":{"Name":"Colosseum Gym","Type":"Sport","Address":"Kylemore Park S. Kylemore","Town":"Ballyfermot","County":"Dublin","Postcode":"Dublin 10","Phone":"+353 1 623 8616","Website":"www.colosseumgym.ie","Email":""},"geometry":{"type":"Point","coordinates":[-6.3504409,53.3335928]}},{"type":"Feature","properties":{"Name":"Commercial Rowing Club Dublin","Type":"Sport","Address":"Longmeadows Islandbridge Phoenix Park","Town":"Ballyfermot","County":"Dublin","Postcode":"Dublin 8","Phone":"+353 87 249 7146","Website":"www.commercialrc.ie","Email":""},"geometry":{"type":"Point","coordinates":[-6.322141,53.3463011]}},{"type":"Feature","properties":{"Name":"Donore Karate Club","Type":"Sport","Address":"20 Chapelizod Rd. Chapelizod","Town":"Chapelizod","County":"Dublin ","Postcode":"Dublin 10","Phone":"+353 85 840 5506","Website":"www.donorekarateclub.com/","Email":""},"geometry":{"type":"Point","coordinates":[-6.3486863,53.3451034]}},{"type":"Feature","properties":{"Name":"Longmeadows Pitch And Putt Course","Type":"Sport","Address":"253 Sarsfield Rd. Ballyfermot Chapelizod","Town":"Ballyfermot","County":"Dublin","Postcode":"Dublin 10","Phone":"+353 1 630 4380","Website":"www.longmeadowspitchandputt.com","Email":""},"geometry":{"type":"Point","coordinates":[-6.335715,53.343407]}},{"type":"Feature","properties":{"Name":"Parkwest Swimming Pool","Type":"Sport","Address":"The Plaza Parkwest Avenue Nangor Road","Town":"Ballyfermot","County":"Dublin","Postcode":"Dublin 10","Phone":"+353 85 876 1647","Website":"www.parkwestswimmingpool.ie","Email":""},"geometry":{"type":"Point","coordinates":[-6.3703375,53.3319274]}},{"type":"Feature","properties":{"Name":"Sarsfield Racing Pigeon Club","Type":"Sport","Address":"Lally Rd. Kilmainham","Town":"Ballyfermot","County":"Dublin","Postcode":"Dublin 10","Phone":"+353 1 626 4916","Website":"","Email":""},"geometry":{"type":"Point","coordinates":[-6.3377994,53.3425352]}},{"type":"Feature","properties":{"Name":"St. Matthews Boxing Club","Type":"Sport","Address":"Drumfinn Rd. Drumfinn ","Town":"Ballyfermot","County":"Dublin","Postcode":"Dublin 10","Phone":"+353 87 278 0316","Website":"www.stmatthewsboxingclub.com","Email":""},"geometry":{"type":"Point","coordinates":[-6.3614818,53.3460922]}},{"type":"Feature","properties":{"Name":"Babes In The Wood Creche","Type":"Education","Address":"10 Cedar Brook Walk","Town":"","County":"Dublin ","Postcode":"Dublin 10","Phone":"+353 1 620 8580","Website":"www.babesinthewoodcreche.com","Email":"mail@babesinthewoodscreche.com"},"geometry":{"type":"Point","coordinates":[-6.3803117,53.3368853]}},{"type":"Feature","properties":{"Name":"Ballyfermot Chapelizod Partnership","Type":"Education","Address":"4 Drumfinn Park Drumfinn","Town":"Ballyfermot","County":"Dublin","Postcode":"Dublin 10","Phone":"+353 1 623 5612","Website":"","Email":"info@bcpartnership.ie"},"geometry":{"type":"Point","coordinates":[-6.3591914,53.3441442]}},{"type":"Feature","properties":{"Name":"Ballyfermot Resource Centre","Type":"Education","Address":"Lynch's Ln. Chapelizod","Town":"","County":"Dublin","Postcode":"Dublin 10","Phone":"+353 1 626 4147","Website":"www.ballyfermotfrc.com/","Email":"info@ballyfermotfrc.com"},"geometry":{"type":"Point","coordinates":[-6.3481017,53.3429701]}},{"type":"Feature","properties":{"Name":"Ballyfermot Youth Service ","Type":"Education","Address":"3 Drumfinn Park Drumfinn","Town":"Ballyfermot","County":"Dublin ","Postcode":"Dublin 10","Phone":"+353 1 605 5011","Website":"www.ballyfermotyouthservice.ie/","Email":"info@ballyfermotys.ie"},"geometry":{"type":"Point","coordinates":[-6.361521,53.3441374]}},{"type":"Feature","properties":{"Name":"CDETB Ballyfermot Training Centre","Type":"Education","Address":"Ballyfermot Hill Chapelizod","Town":"Ballyfermot","County":"Dublin ","Postcode":"Dublin 10","Phone":"+353 1 605 5900","Website":"www.ballyfermottrainingcentre.ie/","Email":"barecruitment@btc.cdetb.ie"},"geometry":{"type":"Point","coordinates":[-6.3499903,53.3468992]}},{"type":"Feature","properties":{"Name":"De La Salle Boys National School","Type":"Education","Address":"89-91 Ballyfermot Rd Chapelizod","Town":"","County":"Dublin ","Postcode":"Dublin 10","Phone":"+353 1 626 7527","Website":"","Email":"delasalleballyfermot@gmail.com"},"geometry":{"type":"Point","coordinates":[-6.3747406314,53.3210673159]}},{"type":"Feature","properties":{"Name":"Kylemore Community Training Centre","Type":"Education","Address":"1st Floor Ballyfermot Family Resource Centre","Town":"Ballyfermot","County":"Dublin","Postcode":"Dublin 10","Phone":"+353 1 623 1356","Website":"www.ballyfermotfrc.com/kylemore-community-training-centre/","Email":"info@kylemorectc.ie"},"geometry":{"type":"Point","coordinates":[-6.3466536,53.3427759]}},{"type":"Feature","properties":{"Name":"Saint Ultans","Type":"Education","Address":"Cherry Orchard Ave. Cherry Orchard","Town":"Cherry Orchard Ballyfermot","County":"Dublin","Postcode":"Dublin 10","Phone":"+353 1 643 4599","Website":"www.stultans.ie/saint-ultans-primary-school/","Email":"office@Stultans.ie"},"geometry":{"type":"Point","coordinates":[-6.3757047,53.3370779]}},{"type":"Feature","properties":{"Name":"St Gabriels Primary School","Type":"Education","Address":"159 Ballyfermot Rd.","Town":"","County":"Dublin ","Postcode":"Dublin 10","Phone":"+353 1 626 5958","Website":"www.stgabrielsprimary.ie","Email":"office@stgabrielsprimary.ie"},"geometry":{"type":"Point","coordinates":[-6.3466287,53.3429787]}},{"type":"Feature","properties":{"Name":"St Matthews Preschool","Type":"Education","Address":"5 Drumfinn Park","Town":"","County":"Dublin","Postcode":"Dublin 10","Phone":"+353 1 626 5695","Website":"www.stmatthewsballyfermot.com","Email":""},"geometry":{"type":"Point","coordinates":[-6.366042,53.3427874]}},{"type":"Feature","properties":{"Name":"St. Michael's N.S","Type":"Education","Address":"R112 Chapelizod","Town":"Ballyfermot","County":"Dublin","Postcode":"Dublin 10","Phone":"+353 1 626 3556","Website":"www.stmichaelsns.blogspot.ie/","Email":"stmichaelns.ias@eircom.net "},"geometry":{"type":"Point","coordinates":[-6.3504625,53.3431442]}},{"type":"Feature","properties":{"Name":"St. Raphaels National School","Type":"Education","Address":"199 Kylemore Rd. Chapelizod","Town":"Ballyfermot","County":"Dublin","Postcode":"Dublin 10","Phone":"+353 1 626 5953","Website":"www.straphaels.ie/","Email":"info@straphaels.ie"},"geometry":{"type":"Point","coordinates":[-6.3498501,53.3431958]}},{"type":"Feature","properties":{"Name":"St.Gabriels Primary School","Type":"Education","Address":"159 Ballyfermot Rd. Chapelizod","Town":"Ballyfermot","County":"Dublin","Postcode":"Dublin 10","Phone":"+353 1 626 5958","Website":"www.stgabrielsprimary.ie","Email":"office@stgabrielsprimary.ie"},"geometry":{"type":"Point","coordinates":[-6.3486584,53.3428777]}},{"type":"Feature","properties":{"Name":"Ballyfermot Dental Practice","Type":"Health","Address":"276 Ballyfermot Rd. Drumfinn","Town":"Ballyfermot","County":"Dublin ","Postcode":"Dublin 10","Phone":"+353 1 626 5776","Website":"www.ballyfermotdentalpractice.ie/","Email":"ballyfermotdentalpractice3@gmail.com"},"geometry":{"type":"Point","coordinates":[-6.3532344,53.3426413]}},{"type":"Feature","properties":{"Name":"Ballyfermot Dental Surgery","Type":"Health","Address":"Unit 10 Le Fanu Shopping Centre Le Fanu Rd.","Town":"Ballyfermot","County":"Dublin","Postcode":"Dublin 10","Phone":"+353 1 626 6204","Website":"","Email":""},"geometry":{"type":"Point","coordinates":[-6.3559215,53.3432152]}},{"type":"Feature","properties":{"Name":"Ballyfermot Family Practice","Type":"Health","Address":"Ballyfermot Family Practice Ballyfermot Rd, ","Town":"Ballyfermot","County":"Dublin","Postcode":"Dublin 10","Phone":"+353 1 626 6238","Website":"","Email":""},"geometry":{"type":"Point","coordinates":[-6.3608377,53.3430026]}},{"type":"Feature","properties":{"Name":"Ballyfermot Pharmacy","Type":"Health","Address":"Tesco Shopping Centre Ballyfermot Rd. Kylemore","Town":"Ballyfermot","County":"Dublin ","Postcode":"Dublin 10","Phone":"+353 1 616 6111","Website":"","Email":""},"geometry":{"type":"Point","coordinates":[-6.3530094,53.3418507]}},{"type":"Feature","properties":{"Name":"Ballyfermot Primary Care Centre","Type":"Health","Address":"Ballyfermot Rd Cherry Orchard","Town":"Ballyfermot","County":"Dublin ","Postcode":"Dublin 10","Phone":"+353 76 695 6000","Website":"","Email":""},"geometry":{"type":"Point","coordinates":[-6.3717323,53.343314]}},{"type":"Feature","properties":{"Name":"Boylan's Pharmacy Ltd","Type":"Health","Address":"9 Claddagh Green Cherry Orchard","Town":"Ballyfermot","County":"Dublin ","Postcode":"Dublin 10","Phone":"+353 1 626 4988","Website":"","Email":""},"geometry":{"type":"Point","coordinates":[-6.3661185,53.3409367]}},{"type":"Feature","properties":{"Name":"Claddagh Surgery","Type":"Health","Address":"Ballyfermot Primary Care Centre Ballyfermot Cherry Orchard","Town":"Ballyfermot","County":"Dublin","Postcode":"Dublin 10","Phone":"+353 76 695 6012","Website":"www.claddaghsurgery.ie/","Email":"reception@claddaghsurgery.ie"},"geometry":{"type":"Point","coordinates":[-6.371518,53.343311]}},{"type":"Feature","properties":{"Name":"Crowleys Pharmacy ","Type":"Health","Address":"207 Decies Rd. Decies","Town":"Ballyfermot","County":"Dublin","Postcode":"Dublin 10","Phone":"+353 1 626 4528","Website":"","Email":""},"geometry":{"type":"Point","coordinates":[-6.349347,53.340844]}},{"type":"Feature","properties":{"Name":"Dr. Donal P O'Sullivan","Type":"Health","Address":"203 Le Fanu Road","Town":"Ballyfermot","County":"Dublin ","Postcode":"Dublin 10","Phone":"+353 1 626 6238","Website":"","Email":""},"geometry":{"type":"Point","coordinates":[-6.3589533,53.3418742]}},{"type":"Feature","properties":{"Name":"Emile Evans Dentist","Type":"Health","Address":"283 Ballyfermot Rd. Kylemore","Town":"Ballyfermot","County":"Dublin","Postcode":"Dublin 10","Phone":"+353 1 623 2268","Website":"","Email":""},"geometry":{"type":"Point","coordinates":[-6.35295,53.3419842]}},{"type":"Feature","properties":{"Name":"Grange Cross Medical Centre","Type":"Health","Address":"Grange Cross Ballyfermot Rd","Town":"Ballyfermot","County":"Dublin","Postcode":"Dublin 10","Phone":"+353 1 626 4762","Website":"","Email":""},"geometry":{"type":"Point","coordinates":[-6.3566796,53.3426553]}},{"type":"Feature","properties":{"Name":"Kiely's CarePlus Pharmacy","Type":"Health","Address":"282 Ballyfermot Rd","Town":"Ballyfermot","County":"Dublin","Postcode":"Dublin 10","Phone":"+353 1 626 0800","Website":"www.careplus.ie/pharmacies/Kielys282-CarePlus-Pharmacy-Dublin","Email":"kielys.ballyfermot@careplus.ie"},"geometry":{"type":"Point","coordinates":[-6.3515802,53.3423791]}},{"type":"Feature","properties":{"Name":"Lloyds Pharmacy","Type":"Health","Address":"292 Ballyfermot Rd","Town":"Ballyfermot","County":"Dublin","Postcode":"Dublin 10","Phone":"+353 1 623 8434","Website":"www.lloydspharmacy.ie/","Email":"onlinesupport@LloydsPharmacy.ie"},"geometry":{"type":"Point","coordinates":[-6.3524278,53.3421452]}},{"type":"Feature","properties":{"Name":"Moloneys Pharmacy","Type":"Health","Address":"Grange Cross Drumfinn","Town":"Ballyfermot","County":"Dublin ","Postcode":"Dublin 10","Phone":"+353 1 626 4131","Website":"www.sites.google.com/site/moloneyspharmacy/contact-us","Email":""},"geometry":{"type":"Point","coordinates":[-6.3565396,53.3425612]}},{"type":"Feature","properties":{"Name":"The Surgery","Type":"Health","Address":"314b Ballyfermot Rd Drumfinn","Town":"Ballyfermot","County":"Dublin","Postcode":"Dublin 10","Phone":"+353 1 626 2629","Website":"www.docvadis.ie/naseema-moorad/index.html","Email":"drmooradsurgery@gmail.com"},"geometry":{"type":"Point","coordinates":[-6.3543754,53.3423271]}},{"type":"Feature","properties":{"Name":"Your Local Pharmacy","Type":"Health","Address":"3 Ballyfermot Rd. Drumfinn","Town":"Ballyfermot","County":"Dublin","Postcode":"Dublin 10","Phone":"+353 1 626 3180","Website":"www.facebook.com/yourlocalpharmacygroup/","Email":""},"geometry":{"type":"Point","coordinates":[-6.3542209,53.3425362]}},{"type":"Feature","properties":{"Name":"Ballyfermot Community Civic Centre","Type":"Citizen Service","Address":"Ballyfermot Rd","Town":"Ballyfermot","County":"Dublin ","Postcode":"Dublin 10","Phone":"+353 761 07 5000","Website":"http://www.citizensinformation.ie/en/","Email":"ballyfermot@citinfo.ie"},"geometry":{"type":"Point","coordinates":[-6.3640609,53.343281]}},{"type":"Feature","properties":{"Name":"Ballyfermot Garda Station","Type":"Citizen Service","Address":"Rossmore Ave","Town":"Ballyfermot","County":"Dublin ","Postcode":"Dublin 10","Phone":"+353 1 666 7200","Website":"www.garda.ie/en/Contact-Us/Station-Directory/Ballyfermot.html","Email":""},"geometry":{"type":"Point","coordinates":[-6.3602418,53.3447535]}},{"type":"Feature","properties":{"Name":"Ballyfermot Post Office","Type":"Citizen Service","Address":"199 Decies Rd","Town":"Ballyfermot","County":"Dublin ","Postcode":"Dublin 10","Phone":"+353 1 6269801","Website":"www.anpost.ie/AnPost/","Email":""},"geometry":{"type":"Point","coordinates":[-6.3725639,53.3413412]}},{"type":"Feature","properties":{"Name":"Ballyfermot Upper Post Office","Type":"Citizen Service","Address":"Le Fanu Shopping Centre","Town":"Ballyfermot","County":"Dublin","Postcode":"Dublin 10","Phone":"+353 1 6267736","Website":"www.anpost.ie/AnPost/","Email":""},"geometry":{"type":"Point","coordinates":[-6.3586097,53.3433644]}},{"type":"Feature","properties":{"Name":"Ballyfermot Youth Service Gurteen Youth Club","Type":"Citizen Service","Address":"Gurteen Park","Town":"Ballyfermot","County":"Dublin","Postcode":"Dublin 10","Phone":"+353 1 623 1431","Website":"www.ballyfermotyouthservice.ie/contact-us/","Email":"info@ballyfermotys.ie"},"geometry":{"type":"Point","coordinates":[-6.3792416,53.3306394]}},{"type":"Feature","properties":{"Name":"Ballyfermot Youth Service Head Office","Type":"Citizen Service","Address":"41 Decies Rd","Town":"Ballyfermot","County":"Dublin ","Postcode":"Dublin 10","Phone":"+353 1 623 1431","Website":"www.ballyfermotyouthservice.ie/contact-us/","Email":"admin@ballyfermotys.ie"},"geometry":{"type":"Point","coordinates":[-6.3526856,53.3457143]}},{"type":"Feature","properties":{"Name":"Ballyfermot Youth Service Information Centre","Type":"Citizen Service","Address":"Drumfinn Park","Town":"Ballyfermot","County":"Dublin","Postcode":"Dublin 10","Phone":"+353 1 623 7401","Website":"www.ballyfermotyouthservice.ie/contact-us/","Email":"info@ballyfermotys.ie"},"geometry":{"type":"Point","coordinates":[-6.3561269,53.3463828]}},{"type":"Feature","properties":{"Name":"Bank of Ireland","Type":"Citizen Service","Address":"Drumfinn","Town":"Ballyfermot","County":"Dublin","Postcode":"Dublin 10","Phone":"+353 1 626 8124","Website":"www.bankofireland.com","Email":"contactus@boi.com"},"geometry":{"type":"Point","coordinates":[-6.3538015,53.3424872]}},{"type":"Feature","properties":{"Name":"Cherry Orchard Park","Type":"Citizen Service","Address":"Cherry Orchard","Town":"Ballyfermot","County":"Dublin","Postcode":"Dublin 10","Phone":"","Website":"","Email":""},"geometry":{"type":"Point","coordinates":[-6.3728064,53.3360144]}},{"type":"Feature","properties":{"Name":"Claddagh Green Post Office","Type":"Citizen Service","Address":"15 Claddagh Green","Town":"Cherry Orchard","County":"Dublin","Postcode":"Dublin 10","Phone":"+353 1 6265716","Website":"www.anpost.ie/AnPost/","Email":""},"geometry":{"type":"Point","coordinates":[-6.3684037,53.3406909]}},{"type":"Feature","properties":{"Name":"Kylemore Park","Type":"Citizen Service","Address":"Kylemore Avenue","Town":"Ballyfermot","County":"Dublin ","Postcode":"Dublin 10","Phone":"+353 1 6265051","Website":"","Email":""},"geometry":{"type":"Point","coordinates":[-6.3512943,53.3384617]}},{"type":"Feature","properties":{"Name":"Markiewicz Park","Type":"Citizen Service","Address":"Ballyfermot Decies Rd.","Town":"Ballyfermot","County":"Dublin","Postcode":"Dublin 10","Phone":"+353 1 222 2222","Website":"","Email":""},"geometry":{"type":"Point","coordinates":[-6.3399075,53.341007]}},{"type":"Feature","properties":{"Name":"Permanent TSB","Type":"Citizen Service","Address":"Unit 3/4 Tesco Shopping Centre Ballyfermot Rd. Drumfinn","Town":"Ballyfermot","County":"Dublin","Postcode":"Dublin 10 ","Phone":"+353 1 212 4101","Website":"www.permanenttsb.ie/","Email":"info@permanenttsb.ie"},"geometry":{"type":"Point","coordinates":[-6.3548958,53.3424872]}}]}