{"type":"FeatureCollection","features":[{"type":"Feature","properties":{"Name":"Ballyfermot Community Civic Centre","Address":"Ballyfermot Rd","Town":"Ballyfermot","County":"Dublin","Postcode":"Dublin 10","Phone":"+353 761 07 5000","Email":"ballyfermot@citinfo.ie","Website":"http://centres.citizensinformation.ie/centre.php?cic=Ballyfermot+CIC"},"geometry":{"type":"Point","coordinates":[-6.3640609,53.343281]}},{"type":"Feature","properties":{"Name":"Ballyfermot Garda Station","Address":"Rossmore Ave","Town":"Ballyfermot","County":"Dublin","Postcode":"Dublin 10","Phone":"+353 1 666 7200","Email":"","Website":"https://www.garda.ie/en/Contact-Us/Station-Directory/Ballyfermot.html"},"geometry":{"type":"Point","coordinates":[-6.3602418,53.3447535]}},{"type":"Feature","properties":{"Name":"Ballyfermot Post Office","Address":"199 Decies Rd","Town":"Ballyfermot","County":"Dublin","Postcode":"Dublin 10","Phone":"+353 1 6269801","Email":"","Website":"http://www.anpost.ie/AnPost/"},"geometry":{"type":"Point","coordinates":[-6.3725639,53.3413412]}},{"type":"Feature","properties":{"Name":"Ballyfermot Upper Post Office","Address":"Le Fanu Shopping Centre","Town":"Ballyfermot","County":"Dublin","Postcode":"Dublin 10","Phone":"+353 1 6267736","Email":"","Website":"http://www.anpost.ie/AnPost/"},"geometry":{"type":"Point","coordinates":[-6.3586097,53.3433644]}},{"type":"Feature","properties":{"Name":"Ballyfermot Youth Service Gurteen Youth Club","Address":"Gurteen Park","Town":"Ballyfermot","County":"Dublin","Postcode":"Dublin 10","Phone":"+353 1 623 1431","Email":"info@ballyfermotys.ie","Website":"http://www.ballyfermotyouthservice.ie/contact-us/"},"geometry":{"type":"Point","coordinates":[-6.3792416,53.3306394]}},{"type":"Feature","properties":{"Name":"Ballyfermot Youth Service Head Office","Address":"41 Decies Rd","Town":"Ballyfermot","County":"Dublin","Postcode":"Dublin 10","Phone":"+353 1 623 1431","Email":"admin@ballyfermotys.ie","Website":"http://www.ballyfermotyouthservice.ie/contact-us/"},"geometry":{"type":"Point","coordinates":[-6.3526856,53.3457143]}},{"type":"Feature","properties":{"Name":"Ballyfermot Youth Service Information Centre","Address":"Drumfinn Park","Town":"Ballyfermot","County":"Dublin","Postcode":"Dublin 10","Phone":"+353 1 623 7401","Email":"info@ballyfermotys.ie","Website":"http://www.ballyfermotyouthservice.ie/contact-us/"},"geometry":{"type":"Point","coordinates":[-6.3561269,53.3463828]}},{"type":"Feature","properties":{"Name":"Bank of Ireland","Address":"Drumfinn","Town":"Ballyfermot","County":"Dublin","Postcode":"Dublin 10","Phone":"+353 1 626 8124","Email":"contactus@boi.com","Website":"https://www.bankofireland.com"},"geometry":{"type":"Point","coordinates":[-6.3538015,53.3424872]}},{"type":"Feature","properties":{"Name":"Cherry Orchard Park","Address":"Cherry Orchard","Town":"Ballyfermot","County":"Dublin","Postcode":"Dublin 10","Phone":"","Email":"","Website":""},"geometry":{"type":"Point","coordinates":[-6.3728064,53.3360144]}},{"type":"Feature","properties":{"Name":"Claddagh Green Post Office","Address":"15 Claddagh Green","Town":"Cherry Orchard","County":"Dublin","Postcode":"Dublin 10","Phone":"+353 1 6265716","Email":"","Website":"http://www.anpost.ie/AnPost/"},"geometry":{"type":"Point","coordinates":[-6.3684037,53.3406909]}},{"type":"Feature","properties":{"Name":"Kylemore Park","Address":"Kylemore Avenue","Town":"Ballyfermot","County":"Dublin","Postcode":"Dublin 10","Phone":"+353 1 6265051","Email":"","Website":""},"geometry":{"type":"Point","coordinates":[-6.3512943,53.3384617]}},{"type":"Feature","properties":{"Name":"Markiewicz Park","Address":"Ballyfermot Decies Rd.","Town":"Ballyfermot","County":"Dublin","Postcode":"Dublin 10","Phone":"+353 1 222 2222","Email":"","Website":""},"geometry":{"type":"Point","coordinates":[-6.3399075,53.341007]}},{"type":"Feature","properties":{"Name":"Permanent TSB","Address":"Unit 3/4 Tesco Shopping Centre Ballyfermot Rd. Drumfinn","Town":"Ballyfermot","County":"Dublin","Postcode":"Dublin 10","Phone":"+353 1 212 4101","Email":"info@permanenttsb.ie","Website":"https://www.permanenttsb.ie/"},"geometry":{"type":"Point","coordinates":[-6.3548958,53.3424872]}}]}