{"type":"FeatureCollection","features":[{"type":"Feature","properties":{"Name":"Babes In The Wood Creche","Address":"10 Cedar Brook Walk","Town":"","County":"Dublin","Postcode":"Dublin 10","Phone":"+353 1 620 8580","Website":"www.babesinthewoodcreche.com","Email":"mail@babesinthewoodscreche.com"},"geometry":{"type":"Point","coordinates":[-6.3803117,53.3368853]}},{"type":"Feature","properties":{"Name":"Ballyfermot Chapelizod Partnership","Address":"4 Drumfinn Park Drumfinn","Town":"Ballyfermot","County":"Dublin","Postcode":"Dublin 10","Phone":"+353 1 623 5612","Website":"http://www.bcpartnership.ie/","Email":"info@bcpartnership.ie"},"geometry":{"type":"Point","coordinates":[-6.3591914,53.3441442]}},{"type":"Feature","properties":{"Name":"Ballyfermot Resource Centre","Address":"Lynch's Ln. Chapelizod","Town":"","County":"Dublin","Postcode":"Dublin 10","Phone":"+353 1 626 4147","Website":"www.ballyfermotfrc.com/","Email":"info@ballyfermotfrc.com"},"geometry":{"type":"Point","coordinates":[-6.3481017,53.3429701]}},{"type":"Feature","properties":{"Name":"Ballyfermot Youth Service","Address":"3 Drumfinn Park Drumfinn","Town":"Ballyfermot","County":"Dublin","Postcode":"Dublin 10","Phone":"+353 1 605 5011","Website":"http://www.ballyfermotyouthservice.ie/","Email":"info@ballyfermotys.ie"},"geometry":{"type":"Point","coordinates":[-6.361521,53.3441374]}},{"type":"Feature","properties":{"Name":"CDETB Ballyfermot Training Centre","Address":"Ballyfermot Hill Chapelizod","Town":"Ballyfermot","County":"Dublin","Postcode":"Dublin 10","Phone":"+353 1 605 5900","Website":"http://www.ballyfermottrainingcentre.ie/","Email":"barecruitment@btc.cdetb.ie"},"geometry":{"type":"Point","coordinates":[-6.3499903,53.3468992]}},{"type":"Feature","properties":{"Name":"De La Salle Boys National School","Address":"89-91 Ballyfermot Rd Chapelizod","Town":"","County":"Dublin","Postcode":"Dublin 10","Phone":"+353 1 626 7527","Website":"","Email":"delasalleballyfermot@gmail.com"},"geometry":{"type":"Point","coordinates":[-6.3747406314,53.3210673159]}},{"type":"Feature","properties":{"Name":"Kylemore Community Training Centre","Address":"1st Floor Ballyfermot Family Resource Centre","Town":"Ballyfermot","County":"Dublin","Postcode":"Dublin 10","Phone":"+353 1 623 1356","Website":"https://ballyfermotfrc.com/kylemore-community-training-centre/","Email":"info@kylemorectc.ie"},"geometry":{"type":"Point","coordinates":[-6.3466536,53.3427759]}},{"type":"Feature","properties":{"Name":"Saint Ultans","Address":"Cherry Orchard Ave. Cherry Orchard","Town":"Cherry Orchard Ballyfermot","County":"Dublin","Postcode":"Dublin 10","Phone":"+353 1 643 4599","Website":"www.stultans.ie/saint-ultans-primary-school/","Email":"office@Stultans.ie"},"geometry":{"type":"Point","coordinates":[-6.3757047,53.3370779]}},{"type":"Feature","properties":{"Name":"St Gabriels Primary School","Address":"159 Ballyfermot Rd.","Town":"","County":"Dublin","Postcode":"Dublin 10","Phone":"+353 1 626 5958","Website":"www.stgabrielsprimary.ie","Email":"office@stgabrielsprimary.ie"},"geometry":{"type":"Point","coordinates":[-6.3466287,53.3429787]}},{"type":"Feature","properties":{"Name":"St Matthews Preschool","Address":"5 Drumfinn Park","Town":"","County":"Dublin","Postcode":"Dublin 10","Phone":"+353 1 626 5695","Website":"www.stmatthewsballyfermot.com","Email":""},"geometry":{"type":"Point","coordinates":[-6.366042,53.3427874]}},{"type":"Feature","properties":{"Name":"St. Michael's N.S","Address":"R112 Chapelizod","Town":"Ballyfermot","County":"Dublin","Postcode":"Dublin 10","Phone":"+353 1 626 3556","Website":"www.stmichaelsns.blogspot.ie/","Email":"stmichaelns.ias@eircom.net"},"geometry":{"type":"Point","coordinates":[-6.3504625,53.3431442]}},{"type":"Feature","properties":{"Name":"St. Raphaels National School","Address":"199 Kylemore Rd. Chapelizod","Town":"Ballyfermot","County":"Dublin","Postcode":"Dublin 10","Phone":"+353 1 626 5953","Website":"www.straphaels.ie/","Email":"info@straphaels.ie"},"geometry":{"type":"Point","coordinates":[-6.3498501,53.3431958]}},{"type":"Feature","properties":{"Name":"St.Gabriels Primary School","Address":"159 Ballyfermot Rd. Chapelizod","Town":"Ballyfermot","County":"Dublin","Postcode":"Dublin 10","Phone":"+353 1 626 5958","Website":"www.stgabrielsprimary.ie","Email":"office@stgabrielsprimary.ie"},"geometry":{"type":"Point","coordinates":[-6.3486584,53.3428777]}}]}